[{"no":"1000","lat":"1.662585","lng":"103.598608","name":"Kulai Bus Terminal "},{"no":"1001","lat":"1.661406","lng":"103.603446","name":"Mara "},{"no":"1002","lat":"1.654202","lng":"103.609723","name":"BP Pathlab "},{"no":"1003","lat":"1.650885","lng":"103.611476","name":"Opp Public Bank "},{"no":"1004","lat":"1.648531","lng":"103.613204","name":"Opp Shell Petrol Station "},{"no":"1005","lat":"1.645329","lng":"103.616539","name":"Opp SM Kulai Besar [Sec School] "},{"no":"1006","lat":"1.639792","lng":"103.624731","name":"Opp Kulai Hospital "},{"no":"1007","lat":"1.635824","lng":"103.629926","name":"Taman Mesra Saleng "},{"no":"1008","lat":"1.632988","lng":"103.633425","name":"TJ Mart"},{"no":"1009","lat":"1.628409","lng":"103.638410","name":"Wang Loo Motor "},{"no":"1010","lat":"1.620126","lng":"103.646206","name":"Old PLUS Office "},{"no":"1011","lat":"1.612169","lng":"103.647518","name":"Senai Utama "},{"no":"1012","lat":"1.601093","lng":"103.644996","name":"Senai Town Centre "},{"no":"1013","lat":"1.596543","lng":"103.645485","name":"SK Senai "},{"no":"1014","lat":"1.590642","lng":"103.647989","name":"Taman Aman "},{"no":"1015","lat":"1.571369","lng":"103.660758","name":"Scomi Oms Oilfield Svc "},{"no":"1016","lat":"1.564870","lng":"103.660767","name":"Opp UTM Skudai Gate "},{"no":"1017","lat":"1.554263","lng":"103.658955","name":"PUB Quarters "},{"no":"1018","lat":"1.544733","lng":"103.657726","name":"Taman Sri Putri"},{"no":"1019","lat":"1.540870","lng":"103.659860","name":"Skudai Parade "},{"no":"1020","lat":"1.536043","lng":"103.664553","name":"MPJBT "},{"no":"1021","lat":"1.528308","lng":"103.670749","name":"Taman Tun Aminah "},{"no":"1022","lat":"1.522455","lng":"103.679866","name":"Opp Taman Sutera "},{"no":"1023","lat":"1.519202","lng":"103.682116","name":"Before Paradigm Mall "},{"no":"1024","lat":"1.511936","lng":"103.687188","name":"Taman Dato Penggawa Barat "},{"no":"1025","lat":"1.508617","lng":"103.689301","name":"Before Tampoi Central "},{"no":"1026","lat":"1.500896","lng":"103.695873","name":"Pulai View Apartment "},{"no":"1027","lat":"1.498803","lng":"103.698966","name":"Giant Supermarket "},{"no":"1028","lat":"1.497052","lng":"103.701624","name":"Tampoi Central "},{"no":"1029","lat":"1.489672","lng":"103.712004","name":"UDA "},{"no":"1030","lat":"1.475033","lng":"103.724857","name":"Danga Bay "},{"no":"1031","lat":"1.463399","lng":"103.731414","name":"Country Garden "},{"no":"1032","lat":"1.459424","lng":"103.739081","name":"Dataran Bandaraya "},{"no":"1033","lat":"1.457382","lng":"103.747269","name":"Hospital Sultanah Aminah "},{"no":"1034","lat":"1.456622","lng":"103.749593","name":"Jabatan Agama Islam Johor "},{"no":"1035","lat":"1.455598","lng":"103.762125","name":"Post Office Johor Bahru "},{"no":"1036","lat":"1.463400","lng":"103.764932","name":"JB Sentral Bus Terminal"},{"no":"1037","lat":"1.463400","lng":"103.764932","name":"JB Sentral Bus Terminal"},{"no":"1038","lat":"1.454145","lng":"103.758040","name":"Lot1 Mall - Waterfront City"},{"no":"1039","lat":"1.455894","lng":"103.749986","name":"Hospital Sultanah Aminah "},{"no":"1040","lat":"1.459293","lng":"103.738161","name":"Dataran Bandaraya"},{"no":"1041","lat":"1.463143","lng":"103.731185","name":"Country Garden "},{"no":"1042","lat":"1.473689","lng":"103.724702","name":"Danga Bay"},{"no":"1043","lat":"1.488825","lng":"103.712446","name":"UDA"},{"no":"1044","lat":"1.493757","lng":"103.705311","name":"Plaza Angsana"},{"no":"1045","lat":"1.496710","lng":"103.701216","name":"Tampoi Central"},{"no":"1046","lat":"1.508167","lng":"103.689245","name":"Tampoi Lighting"},{"no":"1047","lat":"1.516499","lng":"103.683598","name":"Opp Paradigm Mall"},{"no":"1048","lat":"1.522529","lng":"103.679387","name":"Entrance to Taman Sutera"},{"no":"1049","lat":"1.528189","lng":"103.670409","name":"Taman Tun Aminah"},{"no":"1050","lat":"1.534883","lng":"103.664797","name":"Before MPJBT"},{"no":"1051","lat":"1.536829","lng":"103.663031","name":"MPJBT"},{"no":"1052","lat":"1.539361","lng":"103.660715","name":"Opp Skudai Parade"},{"no":"1053","lat":"1.544832","lng":"103.657288","name":"Taman Sri Putri"},{"no":"1054","lat":"1.554143","lng":"103.658392","name":"PUB Quarters"},{"no":"1055","lat":"1.590373","lng":"103.647729","name":"Taman Aman"},{"no":"1056","lat":"1.596188","lng":"103.645187","name":"SRK Senai [Primary School]"},{"no":"1057","lat":"1.600632","lng":"103.644651","name":"Senai Town Centre"},{"no":"1058","lat":"1.605882","lng":"103.647588","name":"Senai Post Office"},{"no":"1059","lat":"1.612982","lng":"103.647147","name":"Taman Senai Utama"},{"no":"1060","lat":"1.620565","lng":"103.645637","name":"Old PLUS Office"},{"no":"1061","lat":"1.629378","lng":"103.636978","name":"Saleng"},{"no":"1062","lat":"1.632346","lng":"103.633731","name":"Stor JKR"},{"no":"1063","lat":"1.633177","lng":"103.632776","name":"TJ Mart"},{"no":"1064","lat":"1.635354","lng":"103.630054","name":"Taman Mesra"},{"no":"1065","lat":"1.639320","lng":"103.624811","name":"Kulai Hospital"},{"no":"1066","lat":"1.645409","lng":"103.615875","name":"SM Kulai Besar [Sec School]"},{"no":"1067","lat":"1.647418","lng":"103.613713","name":"Indahpura Food court"},{"no":"1068","lat":"1.651282","lng":"103.610842","name":"Public Bank Kulai"},{"no":"1069","lat":"1.654479","lng":"103.609433","name":"Kulai Recreation Park"},{"no":"1070","lat":"1.660834","lng":"103.604182","name":"Kulai Town Center"},{"no":"1071","lat":"1.662585","lng":"103.598608","name":"Kulai Bus Terminal "}]